{
  "cases": [
    {
      "id": 1,
      "name": "王○明",
      "originalName": "王小明",
      "role": "家教老師",
      "riskTags": ["性騷擾", "不當言語"],
      "location": "台北市士林區",
      "district": "士林區",
      "city": "台北市",
      "date": "2024-08-15",
      "sourceType": "媒體報導",
      "sourceLink": "https://example.com/news/1",
      "description": "30歲男性，曾任才藝班老師",
      "verified": true,
      "coordinates": { "lat": 25.0930, "lng": 121.5250 }
    },
    {
      "id": 2,
      "name": "陳○華",
      "originalName": "陳美華",
      "role": "保母",
      "riskTags": ["情緒虐待"],
      "location": "台北市大安區",
      "district": "大安區",
      "city": "台北市",
      "date": "2024-06-20",
      "sourceType": "政府公告",
      "sourceLink": "https://example.com/gov/2",
      "description": "45歲女性，居家保母",
      "verified": true,
      "coordinates": { "lat": 25.0268, "lng": 121.5436 }
    },
    {
      "id": 3,
      "name": "林○傑",
      "originalName": "林俊傑",
      "role": "陪玩人員",
      "riskTags": ["偷拍"],
      "location": "新北市板橋區",
      "district": "板橋區",
      "city": "新北市",
      "date": "2024-09-01",
      "sourceType": "社群輿情",
      "sourceLink": "https://example.com/social/3",
      "description": "28歲男性，兼職陪玩",
      "verified": false,
      "coordinates": { "lat": 25.0145, "lng": 121.4652 }
    },
    {
      "id": 4,
      "name": "張○玲",
      "originalName": "張雅玲",
      "role": "才藝老師",
      "riskTags": ["肢體暴力"],
      "location": "台中市西屯區",
      "district": "西屯區",
      "city": "台中市",
      "date": "2024-05-10",
      "sourceType": "政府公告",
      "sourceLink": "https://example.com/gov/4",
      "description": "38歲女性，鋼琴老師",
      "verified": true,
      "coordinates": { "lat": 24.1815, "lng": 120.6396 }
    },
    {
      "id": 5,
      "name": "李○文",
      "originalName": "李志文",
      "role": "安親班老師",
      "riskTags": ["性騷擾", "偷拍"],
      "location": "高雄市左營區",
      "district": "左營區",
      "city": "高雄市",
      "date": "2024-07-25",
      "sourceType": "媒體報導",
      "sourceLink": "https://example.com/news/5",
      "description": "35歲男性，安親班負責人",
      "verified": true,
      "coordinates": { "lat": 22.6847, "lng": 120.2943 }
    },
    {
      "id": 6,
      "name": "黃○芳",
      "originalName": "黃淑芳",
      "role": "保母",
      "riskTags": ["疏忽照顧"],
      "location": "台北市內湖區",
      "district": "內湖區",
      "city": "台北市",
      "date": "2024-04-18",
      "sourceType": "政府公告",
      "sourceLink": "https://example.com/gov/6",
      "description": "52歲女性，證照保母",
      "verified": true,
      "coordinates": { "lat": 25.0830, "lng": 121.5912 }
    },
    {
      "id": 7,
      "name": "吳○豪",
      "originalName": "吳俊豪",
      "role": "游泳教練",
      "riskTags": ["不當觸碰"],
      "location": "新北市中和區",
      "district": "中和區",
      "city": "新北市",
      "date": "2024-08-30",
      "sourceType": "社群輿情",
      "sourceLink": "https://example.com/social/7",
      "description": "32歲男性，兒童游泳教練",
      "verified": false,
      "coordinates": { "lat": 24.9989, "lng": 121.4946 }
    },
    {
      "id": 8,
      "name": "周○琪",
      "originalName": "周雅琪",
      "role": "家教老師",
      "riskTags": ["情緒虐待", "言語暴力"],
      "location": "桃園市中壢區",
      "district": "中壢區",
      "city": "桃園市",
      "date": "2024-03-22",
      "sourceType": "媒體報導",
      "sourceLink": "https://example.com/news/8",
      "description": "29歲女性，英文家教",
      "verified": true,
      "coordinates": { "lat": 24.9656, "lng": 121.2249 }
    },
    {
      "id": 9,
      "name": "鄭○宏",
      "originalName": "鄭建宏",
      "role": "陪玩人員",
      "riskTags": ["性騷擾"],
      "location": "台南市東區",
      "district": "東區",
      "city": "台南市",
      "date": "2024-09-15",
      "sourceType": "政府公告",
      "sourceLink": "https://example.com/gov/9",
      "description": "26歲男性，大學生兼職",
      "verified": true,
      "coordinates": { "lat": 22.9833, "lng": 120.2269 }
    },
    {
      "id": 10,
      "name": "許○婷",
      "originalName": "許雅婷",
      "role": "保母",
      "riskTags": ["肢體暴力"],
      "location": "新竹市東區",
      "district": "東區",
      "city": "新竹市",
      "date": "2024-02-14",
      "sourceType": "媒體報導",
      "sourceLink": "https://example.com/news/10",
      "description": "48歲女性，到府保母",
      "verified": true,
      "coordinates": { "lat": 24.8015, "lng": 120.9718 }
    },
    {
      "id": 11,
      "name": "蔡○龍",
      "originalName": "蔡志龍",
      "role": "補習班老師",
      "riskTags": ["偷拍", "性騷擾"],
      "location": "台北市信義區",
      "district": "信義區",
      "city": "台北市",
      "date": "2024-07-08",
      "sourceType": "政府公告",
      "sourceLink": "https://example.com/gov/11",
      "description": "40歲男性，數學補習班老師",
      "verified": true,
      "coordinates": { "lat": 25.0330, "lng": 121.5654 }
    },
    {
      "id": 12,
      "name": "楊○珊",
      "originalName": "楊美珊",
      "role": "才藝老師",
      "riskTags": ["情緒虐待"],
      "location": "台中市北屯區",
      "district": "北屯區",
      "city": "台中市",
      "date": "2024-06-05",
      "sourceType": "社群輿情",
      "sourceLink": "https://example.com/social/12",
      "description": "36歲女性，舞蹈老師",
      "verified": false,
      "coordinates": { "lat": 24.1827, "lng": 120.6865 }
    },
    {
      "id": 13,
      "name": "劉○凱",
      "originalName": "劉建凱",
      "role": "陪玩人員",
      "riskTags": ["不當言語"],
      "location": "新北市新莊區",
      "district": "新莊區",
      "city": "新北市",
      "date": "2024-08-22",
      "sourceType": "媒體報導",
      "sourceLink": "https://example.com/news/13",
      "description": "24歲男性，兼職陪玩",
      "verified": true,
      "coordinates": { "lat": 25.0360, "lng": 121.4503 }
    },
    {
      "id": 14,
      "name": "謝○君",
      "originalName": "謝淑君",
      "role": "保母",
      "riskTags": ["疏忽照顧", "情緒虐待"],
      "location": "高雄市鼓山區",
      "district": "鼓山區",
      "city": "高雄市",
      "date": "2024-04-30",
      "sourceType": "政府公告",
      "sourceLink": "https://example.com/gov/14",
      "description": "55歲女性，資深保母",
      "verified": true,
      "coordinates": { "lat": 22.6553, "lng": 120.2775 }
    },
    {
      "id": 15,
      "name": "洪○偉",
      "originalName": "洪志偉",
      "role": "家教老師",
      "riskTags": ["性騷擾"],
      "location": "台北市松山區",
      "district": "松山區",
      "city": "台北市",
      "date": "2024-09-28",
      "sourceType": "社群輿情",
      "sourceLink": "https://example.com/social/15",
      "description": "31歲男性，理科家教",
      "verified": false,
      "coordinates": { "lat": 25.0608, "lng": 121.5577 }
    },
    {
      "id": 16,
      "name": "郭○雯",
      "originalName": "郭雅雯",
      "role": "安親班老師",
      "riskTags": ["肢體暴力"],
      "location": "桃園市桃園區",
      "district": "桃園區",
      "city": "桃園市",
      "date": "2024-05-25",
      "sourceType": "媒體報導",
      "sourceLink": "https://example.com/news/16",
      "description": "42歲女性，安親班老師",
      "verified": true,
      "coordinates": { "lat": 24.9936, "lng": 121.3010 }
    },
    {
      "id": 17,
      "name": "曾○翰",
      "originalName": "曾柏翰",
      "role": "陪玩人員",
      "riskTags": ["偷拍"],
      "location": "台中市南屯區",
      "district": "南屯區",
      "city": "台中市",
      "date": "2024-07-12",
      "sourceType": "政府公告",
      "sourceLink": "https://example.com/gov/17",
      "description": "27歲男性，兼職陪玩",
      "verified": true,
      "coordinates": { "lat": 24.1380, "lng": 120.6476 }
    },
    {
      "id": 18,
      "name": "呂○萍",
      "originalName": "呂秀萍",
      "role": "保母",
      "riskTags": ["情緒虐待", "言語暴力"],
      "location": "新北市三重區",
      "district": "三重區",
      "city": "新北市",
      "date": "2024-03-08",
      "sourceType": "社群輿情",
      "sourceLink": "https://example.com/social/18",
      "description": "50歲女性，居家保母",
      "verified": false,
      "coordinates": { "lat": 25.0615, "lng": 121.4878 }
    },
    {
      "id": 19,
      "name": "蕭○傑",
      "originalName": "蕭俊傑",
      "role": "游泳教練",
      "riskTags": ["性騷擾", "不當觸碰"],
      "location": "台南市北區",
      "district": "北區",
      "city": "台南市",
      "date": "2024-08-05",
      "sourceType": "媒體報導",
      "sourceLink": "https://example.com/news/19",
      "description": "34歲男性，游泳教練",
      "verified": true,
      "coordinates": { "lat": 23.0047, "lng": 120.2120 }
    },
    {
      "id": 20,
      "name": "賴○如",
      "originalName": "賴雅如",
      "role": "才藝老師",
      "riskTags": ["疏忽照顧"],
      "location": "新竹縣竹北市",
      "district": "竹北市",
      "city": "新竹縣",
      "date": "2024-06-28",
      "sourceType": "政府公告",
      "sourceLink": "https://example.com/gov/20",
      "description": "33歲女性，美術老師",
      "verified": true,
      "coordinates": { "lat": 24.8396, "lng": 121.0044 }
    }
  ],
  "riskTagColors": {
    "性騷擾": "destructive",
    "偷拍": "destructive",
    "不當觸碰": "destructive",
    "肢體暴力": "destructive",
    "情緒虐待": "warning",
    "言語暴力": "warning",
    "不當言語": "warning",
    "疏忽照顧": "caution"
  },
  "sourceTypeLabels": {
    "媒體報導": "媒體",
    "政府公告": "政府",
    "社群輿情": "社群"
  }
}
